{"business_id":"6iYb2HFDywm3zjuRg0shjw","name":"Oskar Blues Taproom","address":"921 Pearl St","city":"Boulder","state":"CO","postal_code":"80302","latitude":40.0175444,"longitude":-105.2833481,"stars":4.0,"review_count":86,"is_open":1,"attributes":{"RestaurantsTableService":"True","WiFi":"u'free'","BikeParking":"True","BusinessParking":"{'garage': False, 'street': True, 'validated': False, 'lot': False, 'valet': False}","BusinessAcceptsCreditCards":"True","RestaurantsReservations":"False","WheelchairAccessible":"True","Caters":"True","OutdoorSeating":"True","RestaurantsGoodForGroups":"True","HappyHour":"True","BusinessAcceptsBitcoin":"False","RestaurantsPriceRange2":"2","Ambience":"{'touristy': False, 'hipster': False, 'romantic': False, 'divey': False, 'intimate': False, 'trendy': False, 'upscale': False, 'classy': False, 'casual': True}","HasTV":"True","Alcohol":"'beer_and_wine'","GoodForMeal":"{'dessert': False, 'latenight': False, 'lunch': False, 'dinner': False, 'brunch': False, 'breakfast': False}","DogsAllowed":"False","RestaurantsTakeOut":"True","NoiseLevel":"u'average'","RestaurantsAttire":"'casual'","RestaurantsDelivery":"None"},"categories":"Gastropubs, Food, Beer Gardens, Restaurants, Bars, American (Traditional), Beer Bar, Nightlife, Breweries","hours":{"Monday":"11:0-23:0","Tuesday":"11:0-23:0","Wednesday":"11:0-23:0","Thursday":"11:0-23:0","Friday":"11:0-23:0","Saturday":"11:0-23:0","Sunday":"11:0-23:0"}}
{"business_id":"tCbdrRPZA0oiIYSmHG3J0w","name":"Flying Elephants at PDX","address":"7000 NE Airport Way","city":"Portland","state":"OR","postal_code":"97218","latitude":45.5889058992,"longitude":-122.5933307507,"stars":4.0,"review_count":126,"is_open":1,"attributes":{"RestaurantsTakeOut":"True","RestaurantsAttire":"u'casual'","GoodForKids":"True","BikeParking":"False","OutdoorSeating":"False","Ambience":"{'romantic': False, 'intimate': False, 'touristy': False, 'hipster': False, 'divey': False, 'classy': False, 'trendy': False, 'upscale': False, 'casual': True}","Caters":"True","RestaurantsReservations":"False","RestaurantsDelivery":"False","HasTV":"False","RestaurantsGoodForGroups":"False","BusinessAcceptsCreditCards":"True","NoiseLevel":"u'average'","ByAppointmentOnly":"False","RestaurantsPriceRange2":"2","WiFi":"u'free'","BusinessParking":"{'garage': True, 'street': False, 'validated': False, 'lot': False, 'valet': False}","Alcohol":"u'beer_and_wine'","GoodForMeal":"{'dessert': False, 'latenight': False, 'lunch': True, 'dinner': False, 'brunch': False, 'breakfast': True}"},"categories":"Salad, Soup, Sandwiches, Delis, Restaurants, Cafes, Vegetarian","hours":{"Monday":"5:0-18:0","Tuesday":"5:0-17:0","Wednesday":"5:0-18:0","Thursday":"5:0-18:0","Friday":"5:0-18:0","Saturday":"5:0-18:0","Sunday":"5:0-18:0"}}
{"business_id":"bvN78flM8NLprQ1a1y5dRg","name":"The Reclaimory","address":"4720 Hawthorne Ave","city":"Portland","state":"OR","postal_code":"97214","latitude":45.5119069956,"longitude":-122.6136928797,"stars":4.5,"review_count":13,"is_open":1,"attributes":{"BusinessAcceptsCreditCards":"True","RestaurantsPriceRange2":"2","ByAppointmentOnly":"False","BikeParking":"False","BusinessParking":"{'garage': False, 'street': True, 'validated': False, 'lot': False, 'valet': False}"},"categories":"Antiques, Fashion, Used, Vintage & Consignment, Shopping, Furniture Stores, Home & Garden","hours":{"Thursday":"11:0-18:0","Friday":"11:0-18:0","Saturday":"11:0-18:0","Sunday":"11:0-18:0"}}
{"business_id":"oaepsyvc0J17qwi8cfrOWg","name":"Great Clips","address":"2566 Enterprise Rd","city":"Orange City","state":"FL","postal_code":"32763","latitude":28.9144823,"longitude":-81.2959787,"stars":3.0,"review_count":8,"is_open":1,"attributes":{"RestaurantsPriceRange2":"1","BusinessAcceptsCreditCards":"True","GoodForKids":"True","ByAppointmentOnly":"False"},"categories":"Beauty & Spas, Hair Salons","hours":null}
{"business_id":"PE9uqAjdw0E4-8mjGl3wVA","name":"Crossfit Terminus","address":"1046 Memorial Dr SE","city":"Atlanta","state":"GA","postal_code":"30316","latitude":33.7470274,"longitude":-84.3534244,"stars":4.0,"review_count":14,"is_open":1,"attributes":{"GoodForKids":"False","BusinessParking":"{'garage': False, 'street': False, 'validated': False, 'lot': False, 'valet': False}","BusinessAcceptsCreditCards":"True"},"categories":"Gyms, Active Life, Interval Training Gyms, Fitness & Instruction","hours":{"Monday":"16:0-19:0","Tuesday":"16:0-19:0","Wednesday":"16:0-19:0","Thursday":"16:0-19:0","Friday":"16:0-19:0","Saturday":"9:0-11:0"}}
